,res_id,name,lat,lng,cuisines,aggregate_rating,rating_text,votes,FirstCuisine,SecondCuisine,ThirdCuisine,FourthCuisine
0,16971711,Snooze,39.7556527778,-104.9889972222,American,4.7,Excellent,642,American,,,
1,16971985,Steuben's Food Service,39.7433166667,-104.9804694444,American,4.7,Excellent,689,American,,,
2,16973602,Root Down,39.7631694444,-105.0056138889,"American, Tapas",4.8,Excellent,480,American, Tapas,,
3,16973012,Wynkoop,39.7533500000,-104.9985300000,"American, Burger, Bar Food",4.4,Very Good,420,American, Burger, Bar Food,
4,16974402,Euclid Hall,39.7477200000,-104.9999900000,"Bar Food, American",4.5,Excellent,382,Bar Food, American,,
5,16973776,Park Burger,39.6822750000,-104.9804472222,"American, Burger",4.9,Excellent,256,American, Burger,,
6,16971517,Sam's No. 3 Downtown,39.7463200000,-104.9954400000,"American, Diner",4.3,Very Good,278,American, Diner,,
7,16970329,My Brother's Bar,39.7563250000,-105.0092388889,"American, Bar Food",4.7,Excellent,274,American, Bar Food,,
8,16971396,Rock Bottom Brewery - Denver,39.7472700000,-104.9947500000,"American, Bar Food",4.1,Very Good,220,American, Bar Food,,
9,16971274,Racines,39.7265638889,-104.9848472222,American,4.3,Very Good,270,American,,,
10,16973987,Snooze,39.7275305556,-104.9405361111,American,4.4,Very Good,209,American,,,
11,16973578,"Tocabe, An American Indian Eatery",39.7766400000,-105.0338700000,American,4.9,Excellent,201,American,,,
12,16967789,Cherry Creek Grill,39.7193555556,-104.9496611111,"Burger, American, Steak",4.4,Very Good,207,Burger, American, Steak,
13,16974574,Jelly Cafe,39.7367800000,-104.9797100000,"American, Sandwich",4.3,Very Good,189,American, Sandwich,,
14,16971095,Potager,39.7340500000,-104.9753722222,American,4.5,Excellent,193,American,,,
15,16974353,Highland Tap and Burger,39.7622700000,-105.0133300000,"American, Burger, Bar Food",4.3,Very Good,134,American, Burger, Bar Food,
16,16967466,Bull & Bush,39.7032250000,-104.9324194444,"American, Bar Food",4.4,Very Good,176,American, Bar Food,,
17,16973111,Vine Street Pub,39.7434166667,-104.9619916667,"American, Bar Food",4.5,Excellent,149,American, Bar Food,,
18,16973328,Rockyard American Grill & Brewing Company,39.4091250000,-104.8694444444,"Burger, American",4.1,Very Good,104,Burger, American,,
19,16973973,Colt & Gray,39.7574416667,-105.0082861111,American,4.2,Very Good,154,American,,,
20,16973002,Woody's Woodfired Pizza,39.7545361111,-105.2203527778,"American, Italian, Pizza",4.6,Excellent,148,American, Italian, Pizza,
21,16973751,Hillstone,39.7209277778,-104.9584583333,"American, Steak",4.4,Very Good,127,American, Steak,,
22,16968827,Fruition,39.7256555556,-104.9713361111,American,4.3,Very Good,141,American,,,
23,16974159,Denver Biscuit Co.,39.7402611111,-104.9491055556,"American, Southern",4.0,Very Good,121,American, Southern,,
24,16966938,Appaloosa Grill,39.7446416667,-104.9911500000,"American, Sandwich",4.1,Very Good,120,American, Sandwich,,
25,16974400,Freshcraft,39.7499100000,-104.9995200000,"Bar Food, American",4.2,Very Good,105,Bar Food, American,,
26,16968304,The Delectable Egg,39.7431000000,-104.9881444444,American,4.1,Very Good,119,American,,,
27,16973842,Lo Hi Steak Bar,39.7621800000,-105.0110900000,"American, Burger, Steak",4.2,Very Good,101,American, Burger, Steak,
28,16974072,Cheddar's Scratch Kitchen,39.5936100000,-104.8043100000,"American, Burger, Bar Food",4.3,Very Good,88,American, Burger, Bar Food,
29,16973025,Yard House,39.7334300000,-105.1546800000,American,4.2,Very Good,126,American,,,
30,16972294,Table 6,39.7263500000,-104.9744000000,American,4.0,Very Good,126,American,,,
31,16968700,Falling Rock Taphouse,39.7538500000,-104.9953900000,"Bar Food, American",4.1,Very Good,108,Bar Food, American,,
32,16967615,Cafe Terracotta,39.6147100000,-105.0188400000,American,4.4,Very Good,106,American,,,
33,16974037,Highland Tavern,39.7645611111,-105.0039361111,"American, Burger, Bar Food",4.2,Very Good,95,American, Burger, Bar Food,
34,16975030,Twin Peaks,39.7365416667,-105.1565777778,"American, Burger",3.6,Good,86,American, Burger,,
35,16974532,Snooze,39.5933000000,-104.9616388889,"American, Diner, Sandwich",4.1,Very Good,86,American, Diner, Sandwich,
36,16969183,Huckleberry,39.9769250000,-105.1318888889,American,4.3,Very Good,105,American,,,
37,16972496,Ted's Montana Grill,39.7722555556,-104.7968833333,"American, Burger, Steak",4.0,Very Good,98,American, Burger, Steak,
38,16969104,Hickory House,39.5292333333,-104.7671666667,"BBQ, American",4.2,Very Good,108,BBQ, American,,
39,16975045,Ignite Kitchen + Cocktails,39.7544300000,-104.9901500000,"American, Burger",3.9,Good,69,American, Burger,,
40,16975435,Tom's Urban,39.7482444444,-104.9986944444,American,3.7,Good,81,American,,,
41,16974851,Biker Jim's Gourmet Dogs,39.7544300000,-104.9901500000,American,4.0,Very Good,92,American,,,
42,16974000,Oskar Blues Homemade Liquids and Solids,40.1392694444,-105.1312722222,"American, Southern",3.8,Good,84,American, Southern,,
43,16972298,Tables,39.7505527778,-104.9176777778,American,4.4,Very Good,103,American,,,
44,16970497,Old Blinking Light,39.5470305556,-104.9994055556,"American, Southwestern",4.0,Very Good,81,American, Southwestern,,
45,16975449,True Food Kitchen,39.7193000000,-104.9546100000,American,4.3,Very Good,87,American,,,
46,16974342,Breakfast on Broadway,39.6637944444,-104.9880222222,American,4.2,Very Good,87,American,,,
47,16973542,Union An American Bistro,39.3693861111,-104.8603444444,American,4.2,Very Good,75,American,,,
48,16975488,Syrup Downtown,39.7492353000,-104.9913250000,American,3.9,Good,56,American,,,
49,16969164,The Hornet,39.7181014000,-104.9872010000,American,4.0,Very Good,94,American,,,
50,16973133,Two Dog Diner,40.1355250000,-105.1034388889,"American, Burger, Diner",4.1,Very Good,73,American, Burger, Diner,
51,16970161,Mead Street Station,39.7623500000,-105.0352900000,"American, Bar Food",4.3,Very Good,98,American, Bar Food,,
52,16971369,Rib House,40.1360777778,-105.1075666667,"American, BBQ",4.1,Very Good,84,American, BBQ,,
53,16973076,The Berkshire,39.7580800000,-104.8878700000,American,4.0,Very Good,79,American,,,
54,16974391,Park & Co,39.7435000000,-104.9814083333,"American, Burger",4.2,Very Good,73,American, Burger,,
55,16972922,White Fence Farm,39.6824305556,-105.0654222222,"American, Southern",4.1,Very Good,71,American, Southern,,
56,16973961,The Lobby American Grille,39.7534890000,-104.9888940000,"American, Burger, Steak",3.9,Good,49,American, Burger, Steak,
57,16969059,Hard Rock Café,39.7435916667,-104.9905083333,"American, Burger",3.2,Average,67,American, Burger,,
58,16975932,Acorn - Denver,39.7688400000,-104.9805700000,American,4.0,Very Good,55,American,,,
59,16974158,Chef Jimmy's Bistro & Spirits,39.8538590000,-104.6739170000,"American, Italian, Pizza",3.8,Good,50,American, Italian, Pizza,
60,16967775,The Cheesecake Factory,39.5632944444,-104.8777916667,"American, Italian",3.7,Good,77,American, Italian,,
61,16967385,Breckenridge Colorado Craft,39.7564472222,-104.9913777778,"American, Bar Food",3.7,Good,73,American, Bar Food,,
62,16972183,Sugarbeet,40.1608470000,-105.1070790000,"American, Vegetarian",4.1,Very Good,78,American, Vegetarian,,
63,16973806,Snarf's,39.7338722222,-104.9751055556,"Sandwich, American",4.4,Very Good,82,Sandwich, American,,
64,16972495,Ted's Montana Grill,39.7474444444,-104.9998027778,"American, Burger, Steak",3.8,Good,68,American, Burger, Steak,
65,17960427,Denver Diner,39.7399027778,-104.9976416667,"Diner, American",3.9,Good,76,Diner, American,,
66,16968305,The Delectable Egg,39.7505138889,-104.9975500000,American,4.0,Very Good,77,American,,,
67,16974349,The Copper Pot,39.6531611111,-104.9813388889,"American, Burger",4.4,Very Good,61,American, Burger,,
68,16970290,Moonlight Diner,39.8099200000,-104.7714800000,"American, Diner",3.9,Good,56,American, Diner,,
69,16976111,Modmarket,39.7466861111,-104.9941250000,American,3.6,Good,36,American,,,
70,16971986,Steve's Snappin' Dogs,39.7403194444,-104.9454194444,American,4.1,Very Good,78,American,,,
71,16967163,Benedict's,39.5955277778,-104.8942111111,American,4.1,Very Good,61,American,,,
72,16973516,Bud's Cafe & Bar,39.4374388889,-104.9624416667,"American, Burger",4.1,Very Good,35,American, Burger,,
73,16971699,Sloan's Bar & Grill,39.7530166667,-105.0613250000,"American, Burger, Bar Food",4.3,Very Good,53,American, Burger, Bar Food,
74,16968970,Govnr's Park Tavern,39.7264700000,-104.9820100000,"American, Burger",3.7,Good,69,American, Burger,,
75,16970385,New York Deli News,39.6533055556,-104.9065472222,"American, Sandwich",3.8,Good,60,American, Sandwich,,
76,16974377,Syrup Cherry Creek,39.7212108000,-104.9578958000,American,3.7,Good,58,American,,,
77,16966914,Annie's Cafe and Bar,39.7400700000,-104.9498100000,American,4.1,Very Good,67,American,,,
78,16968021,CityGrille,39.7402370000,-104.9832210000,"American, Southwestern",3.8,Good,60,American, Southwestern,,
79,16973140,Billy's Inn,39.7776300000,-105.0349300000,"Bar Food, American",4.1,Very Good,60,Bar Food, American,,
80,16973653,Indulge Bistro & Wine Bar,39.5460205000,-105.0042038000,"American, Italian",3.8,Good,56,American, Italian,,
81,16967218,Biker Jim's Gourmet Dogs,39.7502200000,-104.9987340000,American,3.9,Good,62,American,,,
82,16968181,D'Deli,39.7551500000,-105.2210777778,"American, Sandwich",4.4,Very Good,59,American, Sandwich,,
83,16973880,Da Kind Soups,39.6371722222,-105.3156972222,"Sandwich, American",4.4,Very Good,53,Sandwich, American,,
84,16971398,Rock Bottom Restaurant & Brewery,39.5677904597,-104.8739701509,"American, Bar Food",3.8,Good,50,American, Bar Food,,
85,16975353,Punch Bowl Social Denver,39.7179900000,-104.9875900000,American,3.5,Good,53,American,,,
86,16968286,DazzleJazz,39.7308527778,-104.9863138889,American,4.0,Very Good,67,American,,,
87,16970325,Mustard's Last Stand,40.0144150000,-105.2789710000,American,4.1,Very Good,56,American,,,
88,16974781,Park Burger,39.7621472222,-105.0199972222,"American, Burger",3.9,Good,39,American, Burger,,
89,16972497,Ted's Montana Grill,39.5826694444,-105.0262833333,"American, Burger, Steak",3.9,Good,55,American, Burger, Steak,
90,16976571,Snooze,39.7534611111,-104.9996805556,"Sandwich, American",3.7,Good,27,Sandwich, American,,
91,16973859,Cozy Cottage,39.7758555556,-105.0442888889,"American, Breakfast",4.1,Very Good,45,American, Breakfast,,
92,16973120,Second Home Kitchen and Bar,39.7187900000,-104.9567800000,"American, Breakfast",3.9,Good,65,American, Breakfast,,
93,16974633,Tag Burger Bar,39.7356527778,-104.9460305556,"American, Burger",3.8,Good,42,American, Burger,,
94,16973535,Smashburger,39.5947165245,-104.8767677102,American,3.9,Good,63,American,,,
95,16974804,Prohibition,39.7400333333,-104.9810250000,American,4.0,Very Good,59,American,,,
96,16972518,Texas Roadhouse,39.7967555556,-105.0799555556,"American, Steak, BBQ",4.1,Very Good,57,American, Steak, BBQ,
97,16967908,Chinook Tavern,39.6011400000,-104.8896200000,"American, German",3.7,Good,39,American, German,,
98,16967089,Winston's Pub & Grill - Belmar,39.7087500000,-105.0775600000,"American, Pub Food",3.8,Good,51,American, Pub Food,,
99,16976064,Bad Daddy's Burger Bar,39.7201166667,-104.9521333333,"Burger, American",3.8,Good,34,Burger, American,,
100,16972224,Sushi Den,39.6895611111,-104.9804833333,"Japanese, Sushi",4.8,Excellent,571,Japanese, Sushi,,
101,16972233,Sushi Sasa,39.7569200000,-105.0091800000,"Sushi, Japanese",4.6,Excellent,282,Sushi, Japanese,,
102,16969047,Hapa Sushi Grill,39.7193000000,-104.9548500000,"Japanese, Sushi",4.2,Very Good,181,Japanese, Sushi,,
103,16969281,Izakaya Den,39.6897055556,-104.9805666667,"Japanese, Sushi",4.6,Excellent,174,Japanese, Sushi,,
104,16969407,John Holly's Asian Bistro,39.5543250000,-104.8818750000,"Chinese, Japanese, Sushi",4.3,Very Good,116,Chinese, Japanese, Sushi,
105,16968443,Dōmo,39.7380944444,-105.0053416667,"Japanese, Sushi",4.1,Very Good,104,Japanese, Sushi,,
106,16973066,Wasabi Sushi Bar,39.7084583333,-105.0773694444,"Sushi, Japanese",4.2,Very Good,100,Sushi, Japanese,,
107,16973218,Hapa Sushi,39.6189611111,-104.9000333333,"Japanese, Sushi",4.2,Very Good,80,Japanese, Sushi,,
108,16972225,Sushi Hai,39.7619083333,-105.0347138889,"Steak, Japanese, Sushi",4.0,Very Good,100,Steak, Japanese, Sushi,
109,16970343,Namiko's,39.7905916667,-105.0777750000,"Japanese, Sushi",4.0,Very Good,89,Japanese, Sushi,,
110,16969822,Little Holly's,39.5363194444,-105.0159138889,"Asian, Chinese, Sushi",4.3,Very Good,66,Asian, Chinese, Sushi,
111,16969828,Little Ollie's,39.7207984900,-104.9584808400,"Asian, Chinese, Sushi",4.1,Very Good,84,Asian, Chinese, Sushi,
112,16973903,Joy Sushi Asian Bistro,39.5611850000,-104.9008280000,"Asian, Sushi",4.2,Very Good,50,Asian, Sushi,,
113,16969339,Japon,39.9125972222,-105.0491861111,"Japanese, Sushi",4.1,Very Good,77,Japanese, Sushi,,
114,16969459,Junz,39.5128860000,-104.7698990000,"Japanese, Sushi",4.3,Very Good,71,Japanese, Sushi,,
115,16973117,Sushi Katsu,39.6761777778,-104.8652111111,"Japanese, Sushi",4.1,Very Good,62,Japanese, Sushi,,
116,16972234,Sushi Tazu,39.7210111111,-104.9530944444,"Sushi, Japanese",4.1,Very Good,71,Sushi, Japanese,,
117,16973563,Spicy Thai II & Sushi Wow,39.7504694444,-104.9082944444,"Asian, Sushi, Thai",4.3,Very Good,57,Asian, Sushi, Thai,
118,16973629,East Moon Asian Bistro and Sushi,39.8884100000,-105.0778000000,"Asian, Chinese, Sushi",4.0,Very Good,45,Asian, Chinese, Sushi,
119,16973139,Rice,39.6088722222,-104.9220277778,"Japanese, Chinese, Sushi",4.4,Very Good,62,Japanese, Chinese, Sushi,
120,16974575,iFish,39.7553666667,-104.9908833333,"Asian, Japanese, Sushi",4.1,Very Good,51,Asian, Japanese, Sushi,
121,16969395,Jing,39.6190611111,-104.9007250000,"Sushi, Asian",3.9,Good,52,Sushi, Asian,,
122,16973537,Go Fish,39.7170700000,-104.9879500000,"Asian, Seafood, Sushi",4.0,Very Good,54,Asian, Seafood, Sushi,
123,16973108,Sushi Train,39.6541370000,-104.9149870000,"Sushi, Japanese",4.0,Very Good,39,Sushi, Japanese,,
124,16969280,Iwayama Sushi & Da Big Kahuna Bistro,39.6178490000,-105.1284430000,"Japanese, Sushi",4.4,Very Good,52,Japanese, Sushi,,
125,16970597,Osaka Sushi,39.7036333333,-104.9415972222,"Sushi, Japanese",3.8,Good,30,Sushi, Japanese,,
126,16967165,Benihana - Denver,39.6569500000,-104.9001100000,"Japanese, Sushi",4.1,Very Good,60,Japanese, Sushi,,
127,16975328,Blue Sushi Sake Grill,39.7518700000,-105.0010300000,"Japanese, Sushi",4.0,Very Good,39,Japanese, Sushi,,
128,16973747,Taki Sushi,39.7146750000,-104.9822150000,"Sushi, Japanese",4.2,Very Good,58,Sushi, Japanese,,
129,16974182,Hana Matsuri,39.9148527778,-105.0217583333,"Japanese, Sushi, Tapas",4.5,Excellent,40,Japanese, Sushi, Tapas,
130,16969408,John Holly's Asian Bistro,39.6726916667,-104.9734333333,"Chinese, Japanese, Sushi",4.1,Very Good,51,Chinese, Japanese, Sushi,
131,16969949,95a Bistro and Sushi,40.0142333333,-105.1296694444,"Sushi, Tapas",3.9,Good,35,Sushi, Tapas,,
132,16972222,Sushi Basho,39.6128500000,-105.0203400000,"Japanese, Sushi",4.3,Very Good,51,Japanese, Sushi,,
133,16973575,Happy Sumo At The Orchard,39.9712400000,-104.9876500000,"Japanese, Sushi",3.8,Good,44,Japanese, Sushi,,
134,16972928,Wild Basil,39.5668416667,-104.9242638889,"Sushi, Thai",4.2,Very Good,42,Sushi, Thai,,
135,16972683,Uokura,39.7294130000,-105.1780740000,"Asian, Japanese, Sushi",4.1,Very Good,42,Asian, Japanese, Sushi,
136,16971780,Spice China,39.9677611111,-105.1640027778,"Chinese, Sushi",4.1,Very Good,49,Chinese, Sushi,,
137,16973741,Blue Fin Sushi,39.7581250000,-104.9027777778,"Sushi, Japanese, Asian",3.5,Good,50,Sushi, Japanese, Asian,
138,16972236,Sushi Tokoro,39.9153277778,-104.9411777778,"Japanese, Sushi",4.3,Very Good,40,Japanese, Sushi,,
139,16973827,Seoul BBQ,39.6787500000,-104.8653555556,"Korean, Sushi",4.1,Very Good,44,Korean, Sushi,,
140,16973573,Sushi Yume,39.8843583333,-105.0229333333,Sushi,4.2,Very Good,28,Sushi,,,
141,16975420,Hapa Sushi,39.7498083333,-105.0000444444,"Japanese, Sushi",3.5,Good,25,Japanese, Sushi,,
142,16967166,Benihana - Broomfield,39.9269600000,-105.1329700000,"Japanese, Sushi",4.0,Very Good,42,Japanese, Sushi,,
143,16973870,Yum Asian Fusion Cuisine and Sushi,39.8853027778,-104.7752694444,"Asian, Japanese, Sushi",4.3,Very Good,28,Asian, Japanese, Sushi,
144,16973787,Jason's Thai,39.6799250000,-104.9592055556,"Asian, Sushi, Thai",4.1,Very Good,37,Asian, Sushi, Thai,
145,16967100,Banzai Sushi,39.7016600000,-104.9113130000,"Japanese, Sushi",3.9,Good,46,Japanese, Sushi,,
146,16969696,Land of Sushi,39.5943916667,-104.9592138889,"Japanese, Sushi",4.0,Very Good,44,Japanese, Sushi,,
147,16974298,Fujiyama Sushi & Hibachi,39.5489416667,-105.0019000000,"Japanese, Sushi",4.0,Very Good,34,Japanese, Sushi,,
148,16974220,Ooka,39.9146111111,-105.0685361111,"Chinese, Sushi, Thai",4.2,Very Good,33,Chinese, Sushi, Thai,
149,16969547,Kho's Asian Bistro,40.1429777778,-105.1357416667,"Asian, Chinese, Sushi",4.4,Very Good,38,Asian, Chinese, Sushi,
150,16968780,Fontana Sushi,39.6146370000,-105.0933650000,"Japanese, Sushi",3.9,Good,36,Japanese, Sushi,,
151,16969038,Hana Sushi,39.6401166667,-104.7910916667,"Asian, Sushi",4.1,Very Good,36,Asian, Sushi,,
152,16974538,Okinawa,39.7401750000,-104.9596460000,"Sushi, Japanese, Asian",3.9,Good,36,Sushi, Japanese, Asian,
153,16974638,Volcano,39.5945861111,-104.8672416667,"Asian, Chinese, Sushi",3.7,Good,29,Asian, Chinese, Sushi,
154,16973743,Miyama of Colorado,39.5526230000,-104.8840860000,"Japanese, Steak, Sushi",3.8,Good,30,Japanese, Steak, Sushi,
155,16973233,Sushi Hana,40.1953388889,-105.1026916667,"Japanese, Seafood, Sushi",4.0,Very Good,34,Japanese, Seafood, Sushi,
156,16974284,Jett Asian Kitchen,39.7402200000,-104.9295800000,"Japanese, Sushi, Thai, Chinese, Asian",4.2,Very Good,28,Japanese, Sushi, Thai," Chinese, Asian"
157,16972590,Tokyo Joe's,39.5505222222,-104.9923083333,"Japanese, Sushi",3.9,Good,37,Japanese, Sushi,,
158,16970318,Mt.Fuji Japanese Sushi & Hibachi,39.7258100000,-104.9837730000,"Japanese, Sushi",4.0,Very Good,35,Japanese, Sushi,,
159,16973568,Zo Sushi and Thai,39.9154916667,-105.0563277778,"Sushi, Japanese, Thai, Asian",4.0,Very Good,31,Sushi, Japanese, Thai, Asian
160,16969567,Kokoro,39.7971750000,-105.0777361111,"Japanese, Sushi",3.7,Good,32,Japanese, Sushi,,
161,16974979,East Moon Asian Bistro  Sushi,39.5686500000,-104.9229500000,"Asian, Chinese, Sushi",3.7,Good,22,Asian, Chinese, Sushi,
162,16973622,Halu Sushi,39.7401083333,-105.1973111111,"Asian, Japanese, Sushi",4.0,Very Good,29,Asian, Japanese, Sushi,
163,16972227,Sushi Kazu,39.5955388889,-104.8469166667,"Japanese, Sushi",3.8,Good,20,Japanese, Sushi,,
164,16969530,Kassai Sushi,39.7276916667,-104.9037555556,"Sushi, Japanese, Asian",3.7,Good,27,Sushi, Japanese, Asian,
165,16974827,Mt Fuji,39.8902590000,-105.0684160000,"Japanese, Sushi",3.6,Good,22,Japanese, Sushi,,
166,16969566,Kokoro,39.6734666667,-104.9400250000,"Japanese, Sushi",3.8,Good,25,Japanese, Sushi,,
167,16973553,Bao,39.9615138889,-105.1635194444,"Asian, Sushi",3.8,Good,22,Asian, Sushi,,
168,16968464,Dragon Boat,39.6753166667,-104.8307111111,"Chinese, Sushi, Thai",3.8,Good,30,Chinese, Sushi, Thai,
169,16969550,Kikis Japanese Casual Dining,39.6724027778,-104.9401777778,"Japanese, Sushi",3.8,Good,21,Japanese, Sushi,,
170,16975920,Soko,39.7469250000,-104.9935222222,"Japanese, Seafood, Sushi",3.6,Good,9,Japanese, Seafood, Sushi,
171,16967104,Bara Sushi & Grill,39.6226277778,-104.8958194444,"Thai, Sushi",3.8,Good,23,Thai, Sushi,,
172,16972579,Tokyo Joe's,39.9153250000,-104.9989555556,"Japanese, Sushi",3.8,Good,27,Japanese, Sushi,,
173,16971506,Sakura Japanese Cuisine,40.1508390000,-105.1542190000,"Japanese, Sushi",4.0,Very Good,24,Japanese, Sushi,,
174,16972682,Uoki Japanese,39.7257000000,-104.9786750000,"Japanese, Korean, Sushi, Asian",3.6,Good,19,Japanese, Korean, Sushi, Asian
175,16974481,Sushi Leo,40.1435972222,-105.1322111111,"Japanese, Sushi",3.8,Good,20,Japanese, Sushi,,
176,16968779,Fontana Sushi,39.7111388889,-104.9809194444,"Sushi, Japanese",3.8,Good,22,Sushi, Japanese,,
177,16972582,Tokyo Joe's,39.7370750000,-105.1600805556,"Japanese, Sushi",3.7,Good,23,Japanese, Sushi,,
178,16973213,Yutaka Japanese Restaurant,39.5100027778,-104.7684472222,"Japanese, Sushi",3.7,Good,20,Japanese, Sushi,,
179,16974430,Sushi Castle,39.4062944444,-104.8550555556,"Japanese, Korean, Sushi",3.6,Good,12,Japanese, Korean, Sushi,
180,16974474,Sunflower Asian Cafe,39.5735600000,-104.9898000000,"Asian, Chinese, Sushi",3.7,Good,15,Asian, Chinese, Sushi,
181,16975592,Sushi Aji,39.8127275000,-105.1657212000,Sushi,3.6,Good,16,Sushi,,,
182,16972586,Tokyo Joe's,39.5677944444,-104.8802805556,"Japanese, Sushi",3.7,Good,16,Japanese, Sushi,,
183,16972676,United Chinese,39.9278916667,-104.9388583333,"Chinese, Sushi",3.9,Good,21,Chinese, Sushi,,
184,16967824,Chicken Teriyaki,39.7027583333,-104.9121777778,"Asian, Japanese, Sushi",3.7,Good,11,Asian, Japanese, Sushi,
185,16974812,Thai Green and Sushi,39.7633030000,-105.1423880000,"Asian, Sushi, Thai",3.7,Good,16,Asian, Sushi, Thai,
186,16971751,Sonoda's Sushi and Seafood,39.5685100000,-104.8786900000,"Japanese, Seafood, Sushi",3.7,Good,18,Japanese, Seafood, Sushi,
187,16972240,Sushi Yoshi,39.9791220000,-105.1309860000,"Asian, Sushi",3.7,Good,14,Asian, Sushi,,
188,16971749,Sonoda's Sushi & Seafood,39.6606361111,-104.8526166667,"Japanese, Sushi",3.7,Good,17,Japanese, Sushi,,
189,16975606,Okinawa Sushi,39.5788260000,-105.1391840000,"Sushi, Japanese",3.5,Good,12,Sushi, Japanese,,
190,16975896,Sushi North,39.9147722222,-104.9937444444,"Sushi, Japanese, Asian",3.5,Good,12,Sushi, Japanese, Asian,
191,17979132,Smokin Fins,39.6137111111,-105.0180194444,"Seafood, Sushi",3.2,Average,13,Seafood, Sushi,,
192,16976310,Sawara,39.4088333333,-104.8595055556,"Japanese, Sushi",3.3,Average,9,Japanese, Sushi,,
193,16972588,Tokyo Joe's,39.5810138889,-104.8864277778,"Japanese, Sushi",3.4,Average,16,Japanese, Sushi,,
194,16975465,Sakura,39.6382966000,-105.0824098000,"Japanese, Sushi",3.3,Average,13,Japanese, Sushi,,
195,16975285,Sushi Bay,39.7706194444,-105.0440444444,"Sushi, Japanese",3.6,Good,12,Sushi, Japanese,,
196,16975397,Thai Chili and Sushi,39.7733916667,-104.7985916667,"Sushi, Thai, Asian",3.5,Good,15,Sushi, Thai, Asian,
197,16975506,Epernay Lounge,39.7458500000,-104.9975750000,"Sushi, New American",3.3,Average,13,Sushi, New American,,
198,16973536,Tokyo Joe's,39.6062800000,-104.7083130000,"Japanese, Sushi",3.5,Good,18,Japanese, Sushi,,
199,17820902,Sushi Totoro,39.6400194444,-104.7930833333,Sushi,3.2,Average,8,Sushi,,,
200,16967791,Cherry Cricket,39.7194800000,-104.9567300000,"American, Burger, Mexican",4.7,Excellent,865,American, Burger, Mexican,
201,16973012,Wynkoop,39.7533500000,-104.9985300000,"American, Burger, Bar Food",4.4,Very Good,420,American, Burger, Bar Food,
202,16973776,Park Burger,39.6822750000,-104.9804472222,"American, Burger",4.9,Excellent,256,American, Burger,,
203,16967789,Cherry Creek Grill,39.7193555556,-104.9496611111,"Burger, American, Steak",4.4,Very Good,207,Burger, American, Steak,
204,16974364,Crave Real Burgers,39.3948400000,-104.8886300000,Burger,4.6,Excellent,147,Burger,,,
205,16974353,Highland Tap and Burger,39.7622700000,-105.0133300000,"American, Burger, Bar Food",4.3,Very Good,134,American, Burger, Bar Food,
206,16973328,Rockyard American Grill & Brewing Company,39.4091250000,-104.8694444444,"Burger, American",4.1,Very Good,104,Burger, American,,
207,16971366,Rialto Cafe,39.7470194444,-104.9945055556,"New American, Sandwich, Burger",3.8,Good,136,New American, Sandwich, Burger,
208,16971149,Pumphouse Brewery,40.1688222222,-105.1023861111,"American, Burger, Tex-Mex",4.5,Excellent,139,American, Burger, Tex-Mex,
209,16973184,Five Guys,39.6746210000,-104.8704510000,"Fast Food, Burger",4.4,Very Good,116,Fast Food, Burger,,
210,16973842,Lo Hi Steak Bar,39.7621800000,-105.0110900000,"American, Burger, Steak",4.2,Very Good,101,American, Burger, Steak,
211,16974072,Cheddar's Scratch Kitchen,39.5936100000,-104.8043100000,"American, Burger, Bar Food",4.3,Very Good,88,American, Burger, Bar Food,
212,16974037,Highland Tavern,39.7645611111,-105.0039361111,"American, Burger, Bar Food",4.2,Very Good,95,American, Burger, Bar Food,
213,16975030,Twin Peaks,39.7365416667,-105.1565777778,"American, Burger",3.6,Good,86,American, Burger,,
214,16971518,Sam's No. 3 Aurora,39.6697400000,-104.8655800000,"Burger, Diner, Mexican, American",4.1,Very Good,98,Burger, Diner, Mexican, American
215,16972496,Ted's Montana Grill,39.7722555556,-104.7968833333,"American, Burger, Steak",4.0,Very Good,98,American, Burger, Steak,
216,16975045,Ignite Kitchen + Cocktails,39.7544300000,-104.9901500000,"American, Burger",3.9,Good,69,American, Burger,,
217,16976545,5280 Burger Bar - Downtown Denver Pavilions,39.7435364000,-104.9913688000,Burger,3.6,Good,37,Burger,,,
218,16973133,Two Dog Diner,40.1355250000,-105.1034388889,"American, Burger, Diner",4.1,Very Good,73,American, Burger, Diner,
219,16974391,Park & Co,39.7435000000,-104.9814083333,"American, Burger",4.2,Very Good,73,American, Burger,,
220,16973961,The Lobby American Grille,39.7534890000,-104.9888940000,"American, Burger, Steak",3.9,Good,49,American, Burger, Steak,
221,16974349,The Copper Pot,39.6531611111,-104.9813388889,"American, Burger",4.4,Very Good,61,American, Burger,,
222,16972495,Ted's Montana Grill,39.7474444444,-104.9998027778,"American, Burger, Steak",3.8,Good,68,American, Burger, Steak,
223,16969059,Hard Rock Café,39.7435916667,-104.9905083333,"American, Burger",3.2,Average,67,American, Burger,,
224,16973516,Bud's Cafe & Bar,39.4374388889,-104.9624416667,"American, Burger",4.1,Very Good,35,American, Burger,,
225,16971699,Sloan's Bar & Grill,39.7530166667,-105.0613250000,"American, Burger, Bar Food",4.3,Very Good,53,American, Burger, Bar Food,
226,16968970,Govnr's Park Tavern,39.7264700000,-104.9820100000,"American, Burger",3.7,Good,69,American, Burger,,
227,16976248,Thirsty Lion,39.7521861111,-105.0008916667,"Burger, Bar Food",3.6,Good,26,Burger, Bar Food,,
228,16973319,Pegasus on the Square,39.3729388889,-104.8614361111,"Burger, Greek, Mexican",3.8,Good,47,Burger, Greek, Mexican,
229,16974781,Park Burger,39.7621472222,-105.0199972222,"American, Burger",3.9,Good,39,American, Burger,,
230,16973967,Urban Sombrero,39.7731472222,-104.7986055556,"American, Burger, Tex-Mex",3.9,Good,38,American, Burger, Tex-Mex,
231,16972497,Ted's Montana Grill,39.5826694444,-105.0262833333,"American, Burger, Steak",3.9,Good,55,American, Burger, Steak,
232,16974633,Tag Burger Bar,39.7356527778,-104.9460305556,"American, Burger",3.8,Good,42,American, Burger,,
233,16976064,Bad Daddy's Burger Bar,39.7201166667,-104.9521333333,"Burger, American",3.8,Good,34,Burger, American,,
234,16969845,Lodo's Bar & Grill,39.7531400000,-104.9935700000,"American, Burger",3.7,Good,39,American, Burger,,
235,16974506,Larkburger,39.6229166667,-104.8971166667,Burger,3.7,Good,39,Burger,,,
236,16973638,Ted's Montana Grill,39.9134861111,-105.0415500000,"American, Burger, Steak",3.8,Good,40,American, Burger, Steak,
237,16974455,Juicy,39.5923527778,-104.8871472222,"Burger, American",4.0,Very Good,32,Burger, American,,
238,16975022,The Rock Wood Fired Kitchen,39.7092900000,-105.0791100000,"Burger, Pizza, Sandwich, American",3.7,Good,31,Burger, Pizza, Sandwich, American
239,16974751,Larkburger,39.7108222222,-104.9832833333,"American, Burger",3.7,Good,40,American, Burger,,
240,16968493,Earls Kitchen + Bar,39.5645218000,-104.8743973000,"American, Burger, Steak",3.7,Good,44,American, Burger, Steak,
241,16973098,The Elm,39.7403000000,-104.9296500000,"Burger, Bar Food",3.8,Good,35,Burger, Bar Food,,
242,16967160,Bender's Brat Haus,39.7040972222,-104.7900472222,"Burger, Sandwich, German",4.2,Very Good,25,Burger, Sandwich, German,
243,16969365,Jay's Grille and Bar,39.8387333333,-104.9772111111,"American, Tex-Mex, Burger",4.1,Very Good,26,American, Tex-Mex, Burger,
244,16976586,Terminal Bar,39.7530861111,-105.0001055556,"Burger, American",3.3,Average,13,Burger, American,,
245,16975297,Yard House,39.5591000000,-104.8752100000,"American, Burger, Pizza",3.5,Good,34,American, Burger, Pizza,
246,16973783,Dickens Tavern,40.1641583333,-105.1024083333,"American, Burger",3.9,Good,33,American, Burger,,
247,16973539,The Fainting Goat Pub,39.7299500000,-104.9873805556,"American, Burger, Pub Food",3.9,Good,31,American, Burger, Pub Food,
248,16969385,Jim's Burger Haven,39.8390194444,-105.0534972222,Burger,3.9,Good,32,Burger,,,
249,16977226,Hopdoddy Gourmet Burger Bar,39.7535666667,-104.9992972222,Burger,3.5,Good,18,Burger,,,
250,16975545,Larkburger,39.7456930000,-104.9920260000,"American, Burger",3.6,Good,18,American, Burger,,
251,16974302,Ted's Montana Grill,39.6047066000,-104.7088338000,"American, Burger, Steak",3.7,Good,28,American, Burger, Steak,
252,16972978,The Wishbone,39.8729361111,-105.0258861111,"American, Burger",3.9,Good,26,American, Burger,,
253,16967071,Back Street Tavern and Grill,39.6955151000,-104.8686370000,"American, Burger, Bar Food",3.5,Good,5,American, Burger, Bar Food,
254,16971312,Red Robin Gourmet Burgers and Brews,39.6898305556,-104.8661277778,"American, Burger",3.8,Good,16,American, Burger,,
255,16975482,Bob's Atomic Burgers,39.7553822000,-105.2183103000,Burger,3.8,Good,24,Burger,,,
256,16974192,Freddy's,39.6958972222,-104.8645861111,"Burger, Desserts, Fast Food",3.8,Good,17,Burger, Desserts, Fast Food,
257,16971317,Red Robin Gourmet Burgers,39.6110300000,-105.0837100000,"American, Burger",3.8,Good,17,American, Burger,,
258,16971320,Red Robin,39.5512472222,-104.7741000000,"American, Burger",3.9,Good,21,American, Burger,,
259,16973181,College Inn,39.7291416667,-104.9360722222,"Burger, Tex-Mex",3.6,Good,24,Burger, Tex-Mex,,
260,16973819,Five Guys,40.1893611111,-105.1017305556,"Burger, American",4.0,Very Good,32,Burger, American,,
261,16975533,Crave Real Burgers,39.5475500000,-104.9994800000,Burger,3.6,Good,24,Burger,,,
262,16974583,Famous Dave's,39.5942527778,-104.8053805556,"American, BBQ, Burger",3.8,Good,28,American, BBQ, Burger,
263,16973797,Platte River Bar & Grill,39.6049944444,-105.0210638889,"American, Mexican, Burger",3.8,Good,28,American, Mexican, Burger,
264,16967964,Chopper's,39.7150610000,-104.9459970000,"American, Burger, Mexican",3.6,Good,26,American, Burger, Mexican,
265,16975050,Cedar Creek Pub,39.7487210000,-104.8367449000,"American, Burger, Bar Food",3.7,Good,23,American, Burger, Bar Food,
266,16971792,Sports Column,39.7536888889,-104.9949805556,"American, Burger, Bar Food",3.7,Good,30,American, Burger, Bar Food,
267,16968161,Crown Burgers,39.6767777778,-104.9406361111,"American, Burger",3.9,Good,25,American, Burger,,
268,16975308,The Rock Wood Fired Pizza,39.5624361111,-104.9889611111,"Burger, Pizza, Sandwich, American",3.7,Good,24,Burger, Pizza, Sandwich, American
269,16975901,Lowry Beer Garden,39.7201888889,-104.8961416667,"American, Burger",3.5,Good,17,American, Burger,,
270,16974660,Brooks Place Tavern,39.5437972222,-105.2879861111,"American, Burger",3.7,Good,14,American, Burger,,
271,16974075,Freddy's,39.6228104000,-105.0201364000,"Burger, Desserts, Fast Food",4.1,Very Good,24,Burger, Desserts, Fast Food,
272,16973664,The Rebellion,39.6761805556,-104.9877611111,"Pizza, Burger",3.3,Average,22,Pizza, Burger,,
273,16971310,Red Robin,39.5621388889,-104.9900194444,"American, Burger",3.6,Good,24,American, Burger,,
274,16973505,Bucksnort Saloon,39.4315000000,-105.3185000000,"BBQ, Burger, Mexican",3.6,Good,19,BBQ, Burger, Mexican,
275,16973201,Shelby's Bar & Grill,39.7460111111,-104.9883805556,"Bar Food, Burger",3.5,Good,19,Bar Food, Burger,,
276,16971316,Red Robin Gourmet Burgers and Brews,39.7906805556,-105.0784222222,"American, Burger",3.6,Good,18,American, Burger,,
277,16974714,Lauer Krauts,39.9861900000,-104.8151100000,"Burger, Desserts",3.6,Good,22,Burger, Desserts,,
278,16973848,Icehouse Tavern,39.7541916667,-104.9978416667,"Burger, Sandwich, Bar Food",3.6,Good,20,Burger, Sandwich, Bar Food,
279,16975642,Uber Eats,39.7583070000,-105.0099170000,"Burger, Sandwich",3.6,Good,9,Burger, Sandwich,,
280,16973832,Dougherty's,39.7167200000,-104.9872690000,"Burger, Bar Food",3.6,Good,22,Burger, Bar Food,,
281,16973964,Tony's,39.7312000000,-104.9873722222,"American, Burger, Pizza",3.6,Good,21,American, Burger, Pizza,
282,16973386,Wing Wagon,39.5394972222,-105.3001472222,"BBQ, Burger, Sandwich",4.0,Very Good,13,BBQ, Burger, Sandwich,
283,16975226,The Copper Pot,39.6659750000,-104.9874420000,"American, Burger",3.6,Good,17,American, Burger,,
284,16969384,Jim's Burger Haven,39.8564370000,-104.9795300000,Burger,3.9,Good,21,Burger,,,
285,16974083,Five Guys,39.5943194444,-104.8061666667,Burger,3.6,Good,19,Burger,,,
286,16975646,CHUBurger,40.1520222222,-105.1138222222,Burger,3.5,Good,25,Burger,,,
287,16974397,Ari's Tavern,39.8001630000,-105.0062140000,"American, Burger, Bar Food",3.6,Good,12,American, Burger, Bar Food,
288,16974283,Waterton Tavern,39.4844730000,-105.0733930000,"Burger, American",3.7,Good,16,Burger, American,,
289,16968146,Cowbobas,39.6789861111,-105.0243000000,"American, Burger",3.6,Good,15,American, Burger,,
290,16975448,Teller's Taproom & Kitchen,39.7470630000,-105.1420530000,Burger,3.6,Good,16,Burger,,,
291,16975739,Big Smoke Burger,39.7052472222,-104.9392250000,Burger,3.5,Good,15,Burger,,,
292,16974168,Swingers Sports Lounge and Grill,39.5540220000,-104.8782450000,"American, Burger, Pizza",3.7,Good,16,American, Burger, Pizza,
293,16971319,Red Robin Gourmet Burgers and Brews,39.5952805556,-104.8896722222,"American, Burger",3.5,Good,25,American, Burger,,
294,16969017,Gunther Toody's Diner,39.6068194444,-105.0908583333,"Burger, American",3.4,Average,19,Burger, American,,
295,16974216,Bar Louie,39.8901448819,-105.0692617893,"American, Burger, Mexican",3.4,Average,19,American, Burger, Mexican,
296,16968977,Grandpa's Burger Haven,39.7158400000,-105.0254900000,Burger,3.8,Good,13,Burger,,,
297,16968732,Fatburger,39.7130250000,-104.8225944444,Burger,3.5,Good,12,Burger,,,
298,16972664,Twisters,39.6842000000,-104.7907210000,"Burger, Mexican",3.7,Good,15,Burger, Mexican,,
299,16973085,Buffalo Rose Saloon,39.7556638889,-105.2212305556,"Burger, Bar Food",3.4,Average,20,Burger, Bar Food,,
300,16969910,Lucile's Creole Cafe,39.7115277778,-104.9829472222,"Cafe, Cajun",4.6,Excellent,241,Cafe, Cajun,,
301,16975729,Voodoo Doughnut,39.7399638889,-104.9692694444,"Cafe, Desserts",4.1,Very Good,156,Cafe, Desserts,,
302,16974085,Crema,39.7611722222,-104.9819250000,Cafe,3.9,Good,65,Cafe,,,
303,16969911,Lucile's Creole Cafe,40.1682694444,-105.1011277778,"Cafe, Cajun",4.2,Very Good,80,Cafe, Cajun,,
304,16974838,Lucile's Creole Cafe,39.6123083333,-105.0242527778,"Cafe, Cajun",3.9,Good,67,Cafe, Cajun,,
305,16971980,Stella's Coffee Haus,39.6897277778,-104.9802333333,"Cafe, Desserts",4.2,Very Good,74,Cafe, Desserts,,
306,16973845,The French Press,39.7091970000,-105.0786280000,Cafe,4.0,Very Good,51,Cafe,,,
307,16967055,Aviano Coffee,39.7203361111,-104.9545361111,Cafe,3.8,Good,37,Cafe,,,
308,16971806,St. Mark's Coffeehouse,39.7433777778,-104.9629277778,"Cafe, Sandwich, Coffee and Tea",3.9,Good,34,Cafe, Sandwich, Coffee and Tea,
309,16969684,LaMar's Donuts and Coffee,39.6749370000,-104.8707120000,"Cafe, Donuts",3.5,Good,9,Cafe, Donuts,,
310,16967629,Cake Crumbs Bakery & Cafe,39.7495000000,-104.9174600000,"Desserts, Cafe",3.8,Good,39,Desserts, Cafe,,
311,16975911,Sugarmill,39.7574805556,-104.9869222222,"Desserts, Cafe",3.7,Good,24,Desserts, Cafe,,
312,16974339,Wooden Spoon Cafe & Bakery,39.7620000000,-105.0164111111,"Desserts, Cafe",4.2,Very Good,25,Desserts, Cafe,,
313,16974301,Ziggi's Coffee House,40.1658083333,-105.1022861111,Cafe,3.7,Good,22,Cafe,,,
314,16974525,Coffee at The Point,39.7545861111,-104.9778750000,Cafe,3.5,Good,13,Cafe,,,
315,16974555,Two Rivers Coffee,39.8378333333,-105.0834416667,Cafe,4.0,Very Good,28,Cafe,,,
316,16975525,The French Press,39.6743777778,-104.8102944444,Cafe,3.7,Good,29,Cafe,,,
317,16973173,In-Tea,39.6136583333,-105.0168694444,Cafe,3.9,Good,23,Cafe,,,
318,16973096,Fluid Coffee Bar,39.7462111111,-104.9809416667,Cafe,3.6,Good,29,Cafe,,,
319,16974531,Bittersweet,39.7109861111,-104.9812472222,"Cafe, Sandwich",3.4,Average,31,Cafe, Sandwich,,
320,16976918,Tea Cloud,39.7473833333,-104.9928138889,"Cafe, Bubble Tea",3.2,Average,7,Cafe, Bubble Tea,,
321,16970626,Pablo's Coffee,39.7254472222,-104.9790194444,Cafe,3.7,Good,28,Cafe,,,
322,16974065,Dazbog Coffee,39.7305361111,-104.9728777778,Cafe,3.5,Good,26,Cafe,,,
323,16976781,Pigtrain Coffee Company,39.7531250000,-105.0001972222,Cafe,3.1,Average,10,Cafe,,,
324,17969727,Carbon Cafe & Bar,39.7436800000,-104.9880300000,"Coffee and Tea, Cafe",3.3,Average,7,Coffee and Tea, Cafe,,
325,16973591,Hooked on Colfax,39.7403194444,-104.9496388889,"Cafe, Bagels",3.7,Good,22,Cafe, Bagels,,
326,16972773,Village Roaster Coffee & Tea,39.7122416667,-105.1006166667,"Cafe, Coffee and Tea",3.6,Good,17,Cafe, Coffee and Tea,,
327,16972547,Cafe 13,39.7541083333,-105.2213888889,"Cafe, Sandwich",3.7,Good,21,Cafe, Sandwich,,
328,16975011,Denver Bicycle Cafe,39.7431444444,-104.9705888889,"Cafe, Coffee and Tea",3.5,Good,15,Cafe, Coffee and Tea,,
329,16974235,The Bardo Coffee House,39.7124700000,-104.9874500000,"Cafe, Desserts",3.9,Good,19,Cafe, Desserts,,
330,16971716,Solid Grounds Coffee House,39.6003540000,-104.9880190000,Cafe,4.0,Very Good,15,Cafe,,,
331,16972656,Tuscany Coffee,39.7458980000,-104.9927470000,"Cafe, Sandwich",3.5,Good,8,Cafe, Sandwich,,
332,16975204,2914 Coffee,39.7536006000,-105.0239637000,"Coffee and Tea, Cafe",3.5,Good,9,Coffee and Tea, Cafe,,
333,16973737,Kunjani Coffee,39.5349166667,-104.7950583333,Cafe,3.7,Good,18,Cafe,,,
334,16975394,La Belle Rosette,39.6726722222,-104.9594638889,"Cafe, Coffee and Tea",3.5,Good,7,Cafe, Coffee and Tea,,
335,16968667,Enchanted Grounds,39.5571888889,-104.9413694444,Cafe,3.6,Good,19,Cafe,,,
336,16975671,Novo Coffee,39.7443722222,-104.9897305556,Cafe,3.3,Average,7,Cafe,,,
337,16974150,Sojourner Coffee & Tea,39.6892277778,-104.9226222222,Cafe,3.9,Good,15,Cafe,,,
338,16967591,Cafe Europa,39.7151083333,-104.9814222222,Cafe,3.6,Good,20,Cafe,,,
339,16973936,Eclectic Cafe & Gallery,39.9791194444,-105.1308361111,Cafe,3.8,Good,16,Cafe,,,
340,16969107,Higher Grounds Cafe,39.7537000000,-105.2198500000,Cafe,3.6,Good,14,Cafe,,,
341,16969686,LaMar's Donuts and Coffee,39.9701777778,-105.1639944444,"Cafe, Donuts",3.8,Good,14,Cafe, Donuts,,
342,16968478,Duffeyroll Cafe,39.6523166667,-104.9289388889,"Cafe, Desserts",3.8,Good,17,Cafe, Desserts,,
343,16975583,40 Weight Coffee,39.8139611111,-105.1371833333,"Coffee and Tea, Cafe",3.3,Average,5,Coffee and Tea, Cafe,,
344,16973972,Hutch & Spoon,39.7630722222,-104.9794388889,Cafe,3.5,Good,19,Cafe,,,
345,16970879,Peet's Coffee & Tea - Sheraton Denver Downtown Hotel,39.7422300000,-104.9890210000,Cafe,3.5,Good,14,Cafe,,,
346,16973587,Illegal Grounds Coffeehouse,39.7434222222,-104.9756000000,Cafe,3.5,Good,18,Cafe,,,
347,16976367,Spur Coffee,39.6148833333,-105.0160138889,Cafe,3.4,Average,11,Cafe,,,
348,16975859,ink! Coffee,39.7550194444,-105.0049972222,Cafe,3.5,Good,16,Cafe,,,
349,16973407,Bagelry,39.6924166667,-105.3575361111,"Cafe, Bagels",3.8,Good,15,Cafe, Bagels,,
350,16974128,303 Coffee Company,39.5666100000,-104.8830040000,"Cafe, Desserts",3.7,Good,13,Cafe, Desserts,,
351,16967621,Luna Cafe,40.1724333333,-105.1035694444,"Cafe, Coffee and Tea",3.4,Average,7,Cafe, Coffee and Tea,,
352,16973963,Donut Hut,39.6112333333,-105.0362166667,"Cafe, Donuts",3.8,Good,14,Cafe, Donuts,,
353,16974860,So Perfect Eats,39.7205888889,-104.9532916667,"Sandwich, Cafe",3.4,Average,10,Sandwich, Cafe,,
354,16969581,Krameria Cafe,39.7384027778,-104.9162916667,Cafe,2.6,Average,24,Cafe,,,
355,16969692,LaMar's Donuts and Coffee,39.8773760000,-105.0951210000,"Cafe, Donuts",3.7,Good,12,Cafe, Donuts,,
356,16974615,Lost Coffee,39.3732555556,-104.8585750000,Cafe,3.7,Good,9,Cafe,,,
357,16974393,Ink Coffee,39.7449944444,-104.9915916667,Cafe,3.4,Average,13,Cafe,,,
358,16973779,Novo Coffee,39.7255055556,-104.9670638889,Cafe,3.2,Average,8,Cafe,,,
359,16974456,Bittersweet,39.9784138889,-105.1317750000,"Cafe, Sandwich",3.5,Good,19,Cafe, Sandwich,,
360,16967073,Backstage Coffee,39.7453694444,-104.9972388889,Cafe,3.7,Good,13,Cafe,,,
361,16973734,Espressolé Caffe,39.6011400000,-104.8896190000,Cafe,3.6,Good,10,Cafe,,,
362,17960417,Amethyst Coffee Company,39.7339777778,-104.9876472222,Cafe,3.2,Average,6,Cafe,,,
363,16970192,Metropolis Coffee,39.7337694444,-104.9918222222,Cafe,3.5,Good,13,Cafe,,,
364,16975175,Sugar Bakeshop and Coffee House,39.7206388889,-104.9876027778,Cafe,3.4,Average,13,Cafe,,,
365,16971868,Starbucks,39.5346805556,-104.7905972222,Cafe,3.6,Good,12,Cafe,,,
366,16974815,Off Campus Cafe,39.9672240000,-105.0897970000,Cafe,3.4,Average,13,Cafe,,,
367,16970881,Peet's Coffee & Tea,39.7195972222,-104.9569333333,Cafe,3.7,Good,11,Cafe,,,
368,16974586,My Favorite Muffin,39.7529300000,-105.0025300000,"Desserts, Cafe",3.5,Good,16,Desserts, Cafe,,
369,16975239,Roostercat Coffee House,39.7328250000,-104.9862055556,Cafe,3.5,Good,15,Cafe,,,
370,16969691,LaMar's Donuts and Coffee,39.5439416667,-104.9421472222,"Cafe, Donuts",3.6,Good,10,Cafe, Donuts,,
371,16974484,Highlands Cork and Coffee,39.7621944444,-105.0359805556,Cafe,3.6,Good,9,Cafe,,,
372,16974844,Moze Cafe,39.5407020000,-104.8713120000,"Cafe, Coffee and Tea, Sandwich",3.4,Average,3,Cafe, Coffee and Tea, Sandwich,
373,17979270,Lost Coffee,39.4025970000,-104.8808210000,Cafe,3.6,Good,10,Cafe,,,
374,16973491,Barking Dog Cafe,40.2246000000,-105.2705000000,Cafe,3.6,Good,8,Cafe,,,
375,16975416,Black Eye Coffee Shop,39.7646337000,-105.0041216000,Cafe,3.3,Average,10,Cafe,,,
376,16974712,Steak Escape,39.8587220000,-104.6738620000,"Sandwich, Cafe",3.2,Average,10,Sandwich, Cafe,,
377,16974450,The Chocolate Therapist,39.6135136000,-105.0179970000,"Cafe, Desserts",3.4,Average,14,Cafe, Desserts,,
378,16970629,Page Two,40.0709305556,-105.2010500000,Cafe,3.4,Average,12,Cafe,,,
379,16976949,Huckleberry Roasters,39.7578583333,-104.9862444444,Cafe,3.1,Average,5,Cafe,,,
380,16976169,Pablo's Coffee,39.7371722222,-104.9810194444,Cafe,3.3,Average,9,Cafe,,,
381,16974475,Dazbog Coffee,39.7431500000,-104.9732972222,Cafe,3.5,Good,9,Cafe,,,
382,16974034,My Favorite Muffin,39.6092750000,-105.0365222222,"Desserts, Cafe",3.3,Average,12,Desserts, Cafe,,
383,16974245,Lollicup,39.6878250000,-104.9418250000,"Cafe, Bubble Tea",3.3,Average,9,Cafe, Bubble Tea,,
384,16973814,Mangia Bevi Cafe,39.6012257000,-104.8925437000,Cafe,3.6,Good,6,Cafe,,,
385,16976270,Cookies and Crema,39.4053888889,-104.8581916667,"Cafe, Desserts",3.3,Average,5,Cafe, Desserts,,
386,16975340,Dazbog Coffee,39.8630420000,-104.6714810000,Cafe,3.2,Average,7,Cafe,,,
387,16967681,Caribou Coffee,39.6529232000,-104.9706491000,Cafe,3.4,Average,10,Cafe,,,
388,16974368,Mimi's,39.9581000000,-104.9910583333,"New American, Cafe",2.7,Average,19,New American, Cafe,,
389,16975299,Bean Fosters,39.7283780000,-105.2087449000,Cafe,3.4,Average,7,Cafe,,,
390,16969689,LaMar's Donuts and Coffee,39.6198055556,-105.0166166667,"Cafe, Donuts",3.5,Good,10,Cafe, Donuts,,
391,17755984,Waffle Up!,39.7210305556,-104.9939333333,Cafe,3.1,Average,6,Cafe,,,
392,16977218,Kneaders,39.5187694444,-104.7663277778,"Sandwich, Cafe",3.2,Average,9,Sandwich, Cafe,,
393,16969105,Hidden Cafe,40.1733888889,-105.1032638889,Cafe,3.4,Average,6,Cafe,,,
394,16967392,Brewing Market,40.1403194444,-105.1302500000,Cafe,3.4,Average,9,Cafe,,,
395,16967710,Carino Coffee,39.6090500000,-104.7427400000,"Cafe, Desserts",3.4,Average,7,Cafe, Desserts,,
396,16969257,Ink Coffee,39.7497027778,-104.9960638889,Cafe,3.5,Good,8,Cafe,,,
397,16974199,Dazbog Coffee,39.3713805556,-104.8597250000,Cafe,3.2,Average,9,Cafe,,,
398,16969629,La Dolce Vita,39.8010333333,-105.0814055556,Cafe,3.4,Average,8,Cafe,,,
399,16975154,Tea Bar By Teatulia,39.7586694444,-105.0157472222,"Cafe, Sandwich",3.1,Average,4,Cafe, Sandwich,,
400,16974402,Euclid Hall,39.7477200000,-104.9999900000,"Bar Food, American",4.5,Excellent,382,Bar Food, American,,
401,16973012,Wynkoop,39.7533500000,-104.9985300000,"American, Burger, Bar Food",4.4,Very Good,420,American, Burger, Bar Food,
402,16970329,My Brother's Bar,39.7563250000,-105.0092388889,"American, Bar Food",4.7,Excellent,274,American, Bar Food,,
403,16971396,Rock Bottom Brewery - Denver,39.7472700000,-104.9947500000,"American, Bar Food",4.1,Very Good,220,American, Bar Food,,
404,16967466,Bull & Bush,39.7032250000,-104.9324194444,"American, Bar Food",4.4,Very Good,176,American, Bar Food,,
405,16973111,Vine Street Pub,39.7434166667,-104.9619916667,"American, Bar Food",4.5,Excellent,149,American, Bar Food,,
406,16974353,Highland Tap and Burger,39.7622700000,-105.0133300000,"American, Burger, Bar Food",4.3,Very Good,134,American, Burger, Bar Food,
407,16974400,Freshcraft,39.7499100000,-104.9995200000,"Bar Food, American",4.2,Very Good,105,Bar Food, American,,
408,16974072,Cheddar's Scratch Kitchen,39.5936100000,-104.8043100000,"American, Burger, Bar Food",4.3,Very Good,88,American, Burger, Bar Food,
409,16968700,Falling Rock Taphouse,39.7538500000,-104.9953900000,"Bar Food, American",4.1,Very Good,108,Bar Food, American,,
410,16974037,Highland Tavern,39.7645611111,-105.0039361111,"American, Burger, Bar Food",4.2,Very Good,95,American, Burger, Bar Food,
411,16969271,The Irish Snug,39.7401111111,-104.9717555556,"Irish, Bar Food",4.2,Very Good,111,Irish, Bar Food,,
412,16974833,Ale House Amatos,39.7587300000,-105.0094200000,"American, Desserts, Bar Food",3.9,Good,71,American, Desserts, Bar Food,
413,16970161,Mead Street Station,39.7623500000,-105.0352900000,"American, Bar Food",4.3,Very Good,98,American, Bar Food,,
414,16967385,Breckenridge Colorado Craft,39.7564472222,-104.9913777778,"American, Bar Food",3.7,Good,73,American, Bar Food,,
415,16974630,Green Russell,39.7475300000,-104.9994200000,Bar Food,3.8,Good,64,Bar Food,,,
416,16973140,Billy's Inn,39.7776300000,-105.0349300000,"Bar Food, American",4.1,Very Good,60,Bar Food, American,,
417,16971699,Sloan's Bar & Grill,39.7530166667,-105.0613250000,"American, Burger, Bar Food",4.3,Very Good,53,American, Burger, Bar Food,
418,16971398,Rock Bottom Restaurant & Brewery,39.5677904597,-104.8739701509,"American, Bar Food",3.8,Good,50,American, Bar Food,,
419,16973727,Sputnik,39.7164083333,-104.9877027778,"Bar Food, Sandwich",3.9,Good,57,Bar Food, Sandwich,,
420,16970498,Old Capitol Grill,39.7553861111,-105.2214805556,"Bar Food, Sandwich, Tex-Mex",3.5,Good,58,Bar Food, Sandwich, Tex-Mex,
421,16976248,Thirsty Lion,39.7521861111,-105.0008916667,"Burger, Bar Food",3.6,Good,26,Burger, Bar Food,,
422,16968878,GB Fish & Chips,39.6927638889,-104.9876638889,"Seafood, Bar Food",4.0,Very Good,63,Seafood, Bar Food,,
423,16973081,Tavern,39.7430833333,-104.9801027778,Bar Food,3.8,Good,57,Bar Food,,,
424,16973500,Oskar Blues,40.2246000000,-105.2678000000,"American, BBQ, Bar Food",3.8,Good,56,American, BBQ, Bar Food,
425,16967728,Casey's Bistro & Pub,39.7555300000,-104.8861700000,"American, Bar Food",4.0,Very Good,49,American, Bar Food,,
426,16975174,Williams & Graham,39.7619861111,-105.0111250000,"American, Bar Food",3.7,Good,53,American, Bar Food,,
427,16974088,BJ's Restaurant & Brewhouse,39.8877200000,-105.0755500000,"American, Pizza, Bar Food",3.8,Good,42,American, Pizza, Bar Food,
428,16971397,Rock Bottom Restaurant & Brewery,39.8893363691,-105.0693905354,"American, Bar Food",3.9,Good,54,American, Bar Food,,
429,16974387,Timberline Steaks & Grille,39.8630580000,-104.6737880000,"African, Bar Food, Steak",3.3,Average,35,African, Bar Food, Steak,
430,16973110,The Empire Lounge and Restaurant,39.9781300000,-105.1318972000,"American, Bar Food",3.9,Good,47,American, Bar Food,,
431,16969846,Lodo's Bar & Grill,39.5627000000,-104.9064600000,"American, Bar Food",3.7,Good,43,American, Bar Food,,
432,16973606,The Old Man,39.9145583333,-105.0437388889,"BBQ, Bar Food",4.1,Very Good,38,BBQ, Bar Food,,
433,16973094,Tavern,39.7534166667,-104.9939111111,Bar Food,3.2,Average,38,Bar Food,,,
434,16974409,Stoney's,39.7343361111,-104.9859305556,"American, Bar Food",3.7,Good,43,American, Bar Food,,
435,16975213,Fire on the Mountain,39.7622527778,-105.0372000000,"American, Bar Food",3.9,Good,32,American, Bar Food,,
436,16975649,ViewHouse Ballpark,39.7541630000,-104.9932740000,"American, Bar Food",3.0,Average,34,American, Bar Food,,
437,16973098,The Elm,39.7403000000,-104.9296500000,"Burger, Bar Food",3.8,Good,35,Burger, Bar Food,,
438,16967742,The Celtic Tavern,39.7526083333,-104.9966666667,"British, Bar Food",3.6,Good,33,British, Bar Food,,
439,16973729,Wyman's No. 5,39.7369083333,-104.9625861111,"Pizza, Bar Food, Italian, Sandwich",3.8,Good,37,Pizza, Bar Food, Italian, Sandwich
440,16967462,Buffalo Wild Wings,39.5671018358,-104.8805063381,"Bar Food, American",3.6,Good,35,Bar Food, American,,
441,16974314,Parry's Pizza,39.4148552065,-104.8623495182,"Pizza, Bar Food",3.8,Good,28,Pizza, Bar Food,,
442,16973712,BJ's Restaurant & Brewhouse,39.7129600000,-104.8217000000,"American, Pizza, Bar Food",3.7,Good,32,American, Pizza, Bar Food,
443,16973074,Tavern,39.7190666667,-104.9012666667,Bar Food,3.6,Good,31,Bar Food,,,
444,16973837,Lodo's Bar & Grill,39.8852900000,-105.0266400000,"American, Bar Food",3.3,Average,37,American, Bar Food,,
445,16974109,New Belgium Hub,39.8579250000,-104.6675790000,"American, Bar Food",3.3,Average,24,American, Bar Food,,
446,16973665,Tavern,39.6182166667,-104.8884277778,Bar Food,3.3,Average,33,Bar Food,,,
447,16967071,Back Street Tavern and Grill,39.6955151000,-104.8686370000,"American, Burger, Bar Food",3.5,Good,5,American, Burger, Bar Food,
448,16971456,Royal Hilltop,39.6531200000,-104.7717100000,"American, British, Bar Food",3.6,Good,26,American, British, Bar Food,
449,16975050,Cedar Creek Pub,39.7487210000,-104.8367449000,"American, Burger, Bar Food",3.7,Good,23,American, Burger, Bar Food,
450,16973770,Kinga's Lounge,39.7405100000,-104.9724900000,"Bar Food, Eastern European",3.4,Average,31,Bar Food, Eastern European,,
451,16971792,Sports Column,39.7536888889,-104.9949805556,"American, Burger, Bar Food",3.7,Good,30,American, Burger, Bar Food,
452,16974453,Rock Bottom Restaurant & Brewery,39.8630580000,-104.6757300000,"American, Bar Food",3.2,Average,22,American, Bar Food,,
453,16974345,Rock Bottom Brewery,39.9630972222,-104.9928138889,Bar Food,3.5,Good,28,Bar Food,,,
454,16973180,Blake Street Vault,39.7501111111,-104.9999388889,Bar Food,3.5,Good,22,Bar Food,,,
455,17969762,Back East,39.7464944444,-104.9939194444,Bar Food,3.2,Average,6,Bar Food,,,
456,16968841,Funky Buddha,39.7285583333,-104.9860694444,"Bar Food, American",3.1,Average,13,Bar Food, American,,
457,16968804,Fox & Hound,39.5557666667,-104.8804638889,Bar Food,3.1,Average,27,Bar Food,,,
458,16972552,Three Dogs Tavern,39.7620361111,-105.0322027778,"American, Bar Food",3.5,Good,31,American, Bar Food,,
459,16973201,Shelby's Bar & Grill,39.7460111111,-104.9883805556,"Bar Food, Burger",3.5,Good,19,Bar Food, Burger,,
460,16973036,Yorkshire Fish & Chips,39.8282010000,-105.0063780000,"Bar Food, Seafood",3.9,Good,22,Bar Food, Seafood,,
461,16974012,Bar Louie,39.5911963000,-104.9645322000,"American, Bar Food",3.4,Average,23,American, Bar Food,,
462,16971637,The Shack,39.5752861111,-104.9900361111,"American, Bar Food",3.8,Good,22,American, Bar Food,,
463,16974328,Spill Lounge,39.7480980000,-105.0005360000,Bar Food,3.8,Good,17,Bar Food,,,
464,16973848,Icehouse Tavern,39.7541916667,-104.9978416667,"Burger, Sandwich, Bar Food",3.6,Good,20,Burger, Sandwich, Bar Food,
465,16974892,Tavern,39.6138100000,-105.0176500000,Bar Food,3.4,Average,23,Bar Food,,,
466,16973832,Dougherty's,39.7167200000,-104.9872690000,"Burger, Bar Food",3.6,Good,22,Burger, Bar Food,,
467,16967413,Brooklyn's,39.7469722222,-105.0078805556,Bar Food,3.6,Good,16,Bar Food,,,
468,16967463,Buffalo Wild Wings,39.8411645808,-105.0906120149,"Bar Food, American",3.7,Good,21,Bar Food, American,,
469,16975873,Brothers Bar & Grill,39.5623360000,-104.9036260000,"American, Bar Food",3.1,Average,11,American, Bar Food,,
470,16975764,Historians Ale House,39.7171361111,-104.9874638889,Bar Food,3.5,Good,14,Bar Food,,,
471,16968027,Clancy's Irish Pub,39.7690212000,-105.0745476000,"British, European, Bar Food",3.6,Good,13,British, European, Bar Food,
472,16974397,Ari's Tavern,39.8001630000,-105.0062140000,"American, Burger, Bar Food",3.6,Good,12,American, Burger, Bar Food,
473,16974708,Wood Cellar,39.6870500000,-105.3611527778,"American, Bar Food",3.4,Average,16,American, Bar Food,,
474,16972425,Tailgate Tavern & Grill,39.5184861111,-104.7627111111,Bar Food,3.4,Average,20,Bar Food,,,
475,16967457,Buffalo Wild Wings,39.8869796153,-105.0747254491,"Bar Food, American",3.3,Average,25,Bar Food, American,,
476,16968271,Dave & Buster's,39.8904460000,-105.0689060000,"American, Bar Food",3.3,Average,16,American, Bar Food,,
477,16969371,JD's Bait Shop,39.5952950000,-104.8772840000,"American, Bar Food",3.4,Average,21,American, Bar Food,,
478,16969793,Lincoln's Road House,39.6946055556,-104.9806055556,"Bar Food, Cajun",3.6,Good,19,Bar Food, Cajun,,
479,16974975,Manneken Frites,39.7995250000,-105.0814527778,"European, Bar Food",3.6,Good,14,European, Bar Food,,
480,16967460,Buffalo Wild Wings,39.7088002758,-105.0820130110,"Bar Food, American",3.6,Good,15,Bar Food, American,,
481,16973085,Buffalo Rose Saloon,39.7556638889,-105.2212305556,"Burger, Bar Food",3.4,Average,20,Burger, Bar Food,,
482,16971795,Spot Bar and Grill,39.7598200000,-105.2333210000,"American, Bar Food",3.4,Average,23,American, Bar Food,,
483,16970963,Piper Inn,39.6756600000,-104.8727700000,"Bar Food, American",3.6,Good,17,Bar Food, American,,
484,16973170,Delaney's Cigar Bar and Lounge,39.7527250000,-104.9966055556,Bar Food,3.2,Average,5,Bar Food,,,
485,16973772,Bender's Bar & Grill,39.8915860000,-105.0684630000,"American, Bar Food",3.4,Average,17,American, Bar Food,,
486,16974828,Brothers Bar & Grill,39.7529833333,-104.9940805556,"American, Bar Food",3.1,Average,9,American, Bar Food,,
487,16967461,Buffalo Wild Wings,39.6224889147,-105.0905746222,"Bar Food, American",3.7,Good,18,Bar Food, American,,
488,16973225,Rocky Top,39.7858416667,-105.0348194444,"Burger, Bar Food",3.5,Good,10,Burger, Bar Food,,
489,16974055,Buffalo Wild Wings,39.8786726681,-104.9831253290,"Bar Food, American",3.5,Good,21,Bar Food, American,,
490,16974674,The Irish Rover Pub,39.7155583333,-104.9874194444,Bar Food,3.5,Good,18,Bar Food,,,
491,16975645,Root 25 Taphouse & Kitchen,39.6306097000,-104.8983160000,"American, Bar Food, New American",3.3,Average,9,American, Bar Food, New American,
492,16974662,Noonan's Sports Bar & Grill,39.6755222222,-104.8336722222,"American, Mexican, Bar Food",3.5,Good,12,American, Mexican, Bar Food,
493,16973742,Gibby's Big Backyard,39.6873277778,-104.8675777778,"American, Tex-Mex, Bar Food",3.5,Good,17,American, Tex-Mex, Bar Food,
494,16976569,The District,39.7429400000,-104.9701500000,"American, Bar Food",3.5,Good,14,American, Bar Food,,
495,16974440,Zanzibar Billiards,39.7536055556,-104.9917750000,"Tex-Mex, Mediterranean, American, Bar Food",3.2,Average,8,Tex-Mex, Mediterranean, American, Bar Food
496,16974495,Next Door Lounge,39.7430944444,-104.9681027778,"American, Bar Food",3.9,Good,8,American, Bar Food,,
497,16975117,Left Hand Brewing Company,40.1585860000,-105.1155370000,Bar Food,3.3,Average,21,Bar Food,,,
498,16976613,Cooper Lounge,39.7530527778,-105.0000083333,Bar Food,3.2,Average,7,Bar Food,,,
499,16974092,The Thin Man Tavern,39.7433305556,-104.9630138889,Bar Food,3.5,Good,16,Bar Food,,,
